[
  {
    "name": "Downtown Office",
    "address": "123 Main Street",
    "city": "New York",
    "state": "NY",
    "zipCode": "10001",
    "phone": "(212) 555-0100",
    "latitude": 40.7505,
    "longitude": -73.9965,
    "businessHours": "Monday-Friday: 9:00 AM - 5:00 PM",
    "isActive": true
  },
  {
    "name": "Brooklyn Branch",
    "address": "456 Brooklyn Ave",
    "city": "New York",
    "state": "NY",
    "zipCode": "10002",
    "phone": "(212) 555-0200",
    "latitude": 40.7168,
    "longitude": -73.9861,
    "businessHours": "Monday-Saturday: 8:00 AM - 6:00 PM",
    "isActive": true
  },
  {
    "name": "Manhattan Center",
    "address": "789 Broadway",
    "city": "New York",
    "state": "NY",
    "zipCode": "10003",
    "phone": "(212) 555-0300",
    "latitude": 40.7312,
    "longitude": -73.9887,
    "businessHours": "Monday-Friday: 8:30 AM - 5:30 PM",
    "isActive": true
  },
  {
    "name": "Capitol Office",
    "address": "100 Pennsylvania Ave",
    "city": "Washington",
    "state": "DC",
    "zipCode": "20001",
    "phone": "(202) 555-0100",
    "latitude": 38.9097,
    "longitude": -77.0169,
    "businessHours": "Monday-Friday: 9:00 AM - 5:00 PM",
    "isActive": true
  },
  {
    "name": "Georgetown Branch",
    "address": "200 M Street NW",
    "city": "Washington",
    "state": "DC",
    "zipCode": "20002",
    "phone": "(202) 555-0200",
    "latitude": 38.8867,
    "longitude": -76.9894,
    "businessHours": "Monday-Saturday: 9:00 AM - 7:00 PM",
    "isActive": true
  },
  {
    "name": "Downtown Atlanta",
    "address": "300 Peachtree Street",
    "city": "Atlanta",
    "state": "GA",
    "zipCode": "30001",
    "phone": "(404) 555-0100",
    "latitude": 33.749,
    "longitude": -84.388,
    "businessHours": "Monday-Friday: 8:00 AM - 6:00 PM",
    "isActive": true
  },
  {
    "name": "Midtown Atlanta",
    "address": "400 Piedmont Ave",
    "city": "Atlanta",
    "state": "GA",
    "zipCode": "30002",
    "phone": "(404) 555-0200",
    "latitude": 33.749,
    "longitude": -84.388,
    "businessHours": "Monday-Saturday: 9:00 AM - 8:00 PM",
    "isActive": true
  },
  {
    "name": "Buckhead Office",
    "address": "500 Buckhead Ave",
    "city": "Atlanta",
    "state": "GA",
    "zipCode": "30003",
    "phone": "(404) 555-0300",
    "latitude": 33.749,
    "longitude": -84.388,
    "businessHours": "Monday-Friday: 8:30 AM - 5:30 PM",
    "isActive": false
  },
  {
    "name": "Louisville Main",
    "address": "600 Main Street",
    "city": "Louisville",
    "state": "KY",
    "zipCode": "40001",
    "phone": "(502) 555-0100",
    "latitude": 38.2527,
    "longitude": -85.7585,
    "businessHours": "Monday-Friday: 9:00 AM - 5:00 PM",
    "isActive": true
  },
  {
    "name": "Louisville East",
    "address": "700 Eastern Parkway",
    "city": "Louisville",
    "state": "KY",
    "zipCode": "40002",
    "phone": "(502) 555-0200",
    "latitude": 38.2527,
    "longitude": -85.7585,
    "businessHours": "Monday-Saturday: 8:00 AM - 6:00 PM",
    "isActive": true
  },
  {
    "name": "Closed Location",
    "address": "999 Closed Street",
    "city": "Test City",
    "state": "TX",
    "zipCode": "99999",
    "phone": "(999) 555-9999",
    "latitude": 0.0,
    "longitude": 0.0,
    "businessHours": "Closed",
    "isActive": false
  }
]
